<markers>
<script type="text/javascript" charset="utf-8" id="zm-extension"/>
<marker id="1" name="Tamil nadu Storage House" address="149/2 gomti nagar" lat="11.059821" lng="78.387451" type="restaurant"/>
<marker id="2" name="Telangana storage house" address="123/34 pompad area " lat="17.123184" lng="79.208824" type="restaurant"/>
<marker id="3" name="Madhya Pradash storage house" address="12/1 Chilbilauta area" lat="23.473324" lng="77.947998" type="bar"/>
<marker id="4" name="Haryana storage house" address="36 billa area " lat="29.238478" lng="76.431885" type="bar"/>
<marker id="5" name="Chhattisgarh storage house" address="45 la-4 benaj area" lat="21.295132" lng="81.828232" type="bar"/>
<marker id="6" name="Bhitarwar storage house" address="16 sainik nagar area " lat="25.794033" lng="78.116531" type="bar"/>
<marker id="7" name="Maharashtra storage house" address="43/2 rajeev puram  " lat="19.601194" lng="75.552979" type="restaurant"/>
<marker id="8" name="Tripura storage house" address="12/34 telibagh nagar " lat="23.745127" lng="91.746826" type="restaurant"/>
<marker id="9" name="Chandoor storage house" address="60/23 rajnee khand  " lat="17.874857" lng="78.100815" type="restaurant"/>
<marker id="10" name="Karnataka storge house" address="78/23 dighi area  " lat="15.317277" lng="75.713890" type="restaurant"/>
<marker id="11" name="Kerala storage house" address="456/2 MG road " lat="10.850516" lng="76.271080" type="restaurant"/>
<marker id="12" name="Uttar Pradash storage house" address="southcity gomti nagar 12/7 " lat="28.207609" lng="79.826660" type="restaurant"/>
<marker id="13" name="Assam storage house" address="60/1 viswant wasdi" lat="26.244156" lng="92.537842" type="restaurant"/>
<marker id="14" name="West Bengal storage house" address="234/12 neelmatha area " lat="22.978624" lng="87.747803" type="restaurant"/>
<marker id="15" name="Gujarat storage house" address="40/11 bumma nagar " lat="22.309425" lng="72.136230" type="restaurant"/>
<marker id="16" name="Odisha storage house" address="100/34 chumma nagar " lat="20.940920" lng="84.803467" type="restaurant"/>
<marker id="17" name="Rajasthan storage house" address="222/12 gali sim  " lat="27.391277" lng="73.432617" type="restaurant"/>
<marker id="18" name="Sikkim storage house" address="555/23 gomti nagar area " lat="27.3333303" lng="88.6166475" type="restaurant"/>
<marker id="19" name="Mizoram storage house" address="223/29 jankipuram" lat="23.71039899" lng="92.72001461" type="restaurant"/>
<marker id="20" name="Punjab Storage road" address=" sadu nagar 56 " lat="31.51997398" lng="75.98000281" type="restaurant"/>
<marker id="21" name="Goa Storage house" address="60/7 Mohola 80 " lat="15.491997" lng="73.81800065" type="restaurant"/>
<marker id="22" name="Nagaland Storage house" address="33.12 bajrang pur area, " lat="25.6669979" lng="94.11657019" type="restaurant"/>
<marker id="23" name="Jharkhand Storage Area" address="323/4 MGSF area " lat="23.80039349" lng="86.41998572" type="restaurant"/>
<marker id="24" name="Jammu and Kashmir Storage House" address="234/4 sanani vihar " lat="34.29995933" lng="74.46665849" type="restaurant"/>
<marker id="25" name="Bihar storage House" address="505/4 rinkipuram " lat="25.78541445" lng="87.4799727" type="restaurant"/>
<marker id="26" name="Puducherry storage house" address="1000/34 puttichowk " lat="11.93499371" lng="79.83000037" type="restaurant"/>
<marker id="27" name="Uttranchal Storage House" address="3232/24 old town" lat="30.32040895" lng="78.05000565" type="restaurant"/>
<marker id="28" name="Meghalya storage house" address="23/32 amanora  " lat="25.57049217" lng="91.8800142" type="restaurant"/>
</markers>